title,category,description,latitude,longitude,map_x,map_y,address,city,district,start_year,end_year,period_label,source_name,source_url,preservation_status,tags
Longshan Temple,Historic Site,"A major temple in Wanhua and an important religious and cultural landmark.",25.0372,121.4999,-330,-210,Guangzhou Street,Taipei,Wanhua,1738,,Qing Dynasty,Portfolio import sample,,Preserved,"temple; religion; Wanhua"
Taipei Zhongshan Hall,Historical Building,"A public auditorium originally built during the Japanese period.",25.0443,121.5104,70,-120,Yanping South Road,Taipei,Zhongzheng,1936,,Japanese Period,Portfolio import sample,,Preserved,"public building; Japanese period"
Presidential Office Building,National Historic Site,"A representative government building from the Japanese period.",25.0400,121.5119,150,-150,Chongqing South Road,Taipei,Zhongzheng,1919,,Japanese Period,Portfolio import sample,,Preserved,"government; architecture; national historic site"
Dadaocheng Wharf,Historic District,"A riverside area connected to trade history and urban development in Taipei.",25.0568,121.5071,-310,220,Dadaocheng,Taipei,Datong,1850,,Qing / Japanese Period,Portfolio import sample,,Active Reuse,"river; trade; Dadaocheng"
Fort San Domingo,Historic Site,"A historic fort in Tamsui representing layers of colonial and maritime history.",25.1754,121.4329,-520,360,Zhongzheng Road,New Taipei,Tamsui,1644,,Colonial Period,Portfolio import sample,,Preserved,"fort; Tamsui; maritime history"